[
    {
        "Address": "555 Richmond St. West",
        "EntryID": "28678",
        "Latitude": "43.6466263",
        "Longitude": "-79.4024135",
        "Name": "Aeroplane",
        "Phone": "647.932.6565",
        "Shorthand": "aeroplane-toronto",
        "Type_Shorthand": "fashion",
        "URL": "/fashion/aeroplane-toronto"
    },
    {
        "Address": " 339 Queen St West",
        "EntryID": "47824",
        "Latitude": "43.6493899",
        "Longitude": "-79.39219",
        "Name": "Arc'teryx",
        "Phone": "416.204.1118",
        "Shorthand": "arcteryx-toronto",
        "Type_Shorthand": "fashion",
        "URL": "/fashion/arcteryx-toronto"
    },
    {
        "Address": "438 Richmond St. West",
        "EntryID": "11808",
        "Latitude": "43.647737",
        "Longitude": "-79.397321",
        "Name": "Aristotelis",
        "Phone": "416.593.0856",
        "Shorthand": "aristotelis",
        "Type_Shorthand": "fashion",
        "URL": "/fashion/aristotelis"
    },
    {
        "Address": "387 Queen Street W",
        "EntryID": "45017",
        "Latitude": "43.6490288",
        "Longitude": "-79.3941422",
        "Name": "Bailey Nelson",
        "Phone": "647.346.0387",
        "Shorthand": "bailey-nelson-toronto",
        "Type_Shorthand": "fashion",
        "URL": "/fashion/bailey-nelson-toronto"
    },
    {
        "Address": "256a Queen Street West",
        "EntryID": "39423",
        "Latitude": "43.649754",
        "Longitude": "-79.391751",
        "Name": "Black Market Vintage",
        "Phone": "416.599.5858",
        "Shorthand": "blackmarketvintage",
        "Type_Shorthand": "fashion",
        "URL": "/fashion/blackmarketvintage"
    },
    {
        "Address": "161 Spadina Avenue",
        "EntryID": "21007",
        "Latitude": "43.6486246",
        "Longitude": "-79.3961601",
        "Name": "Branded Boutique",
        "Phone": "647.345.2325",
        "Shorthand": "branded-boutique-toronto",
        "Type_Shorthand": "fashion",
        "URL": "/fashion/branded-boutique-toronto"
    },
    {
        "Address": "326 Queen St. W.",
        "EntryID": "31753",
        "Latitude": "43.6491228",
        "Longitude": "-79.3945193",
        "Name": "Brandy Melville",
        "Phone": "647.351.2611",
        "Shorthand": "brandy-melville-toronto",
        "Type_Shorthand": "fashion",
        "URL": "/fashion/brandy-melville-toronto"
    },
    {
        "Address": "311A Queen St W",
        "EntryID": "24373",
        "Latitude": "43.64963",
        "Longitude": "-79.39134",
        "Name": "Brimz",
        "Phone": "416.598.4287",
        "Shorthand": "brimz-toronto",
        "Type_Shorthand": "fashion",
        "URL": "/fashion/brimz-toronto"
    },
    {
        "Address": "693 Queen St. West",
        "EntryID": "25906",
        "Latitude": "43.646847",
        "Longitude": "-79.4052547",
        "Name": "C Squared (Queen and Bathurst)",
        "Phone": "647.350.1038",
        "Shorthand": "c-squared-toronto",
        "Type_Shorthand": "fashion",
        "URL": "/fashion/c-squared-toronto"
    },
    {
        "Address": "8 Camden Street, Suite 201",
        "EntryID": "17115",
        "Latitude": "43.6473359",
        "Longitude": "-79.3960891",
        "Name": "Camden Spa",
        "Phone": "416.203.8858",
        "Shorthand": "camden-spa-toronto",
        "Type_Shorthand": "fashion",
        "URL": "/fashion/camden-spa-toronto"
    },
    {
        "Address": "679 Queen St. West",
        "EntryID": "29945",
        "Latitude": "43.6469902",
        "Longitude": "-79.4049398",
        "Name": "Canon Blanc",
        "Phone": "647.346.5060",
        "Shorthand": "canon-blanc-toronto",
        "Type_Shorthand": "fashion",
        "URL": "/fashion/canon-blanc-toronto"
    },
    {
        "Address": "315 Queen St W",
        "EntryID": "11247",
        "Latitude": "43.649767",
        "Longitude": "-79.391695",
        "Name": "Change",
        "Phone": "416.977.7667",
        "Shorthand": "change",
        "Type_Shorthand": "fashion",
        "URL": "/fashion/change"
    },
    {
        "Address": "697 Queen St. W.",
        "EntryID": "40870",
        "Latitude": "43.6467896",
        "Longitude": "-79.4053497",
        "Name": "Club MoSheTa",
        "Phone": "647.350.3442",
        "Shorthand": "club-mosheta-toronto",
        "Type_Shorthand": "fashion",
        "URL": "/fashion/club-mosheta-toronto"
    },
    {
        "Address": "744 Queen St W",
        "EntryID": "29455",
        "Latitude": "43.6459981",
        "Longitude": "-79.4100696",
        "Name": "Coal Miner's Daughter (Queen St.)",
        "Phone": "647.381.1439",
        "Shorthand": "coal-miners-daughter-queen-toronto",
        "Type_Shorthand": "fashion",
        "URL": "/fashion/coal-miners-daughter-queen-toronto"
    },
    {
        "Address": "441 Queen St W",
        "EntryID": "28530",
        "Latitude": "43.6487135",
        "Longitude": "-79.3960021",
        "Name": "Cooney for Hair",
        "Phone": "416.348.9961",
        "Shorthand": "cooney-for-hair-toronto",
        "Type_Shorthand": "fashion",
        "URL": "/fashion/cooney-for-hair-toronto"
    },
    {
        "Address": "431 Queen Street West",
        "EntryID": "7016",
        "Latitude": "43.6491889953613",
        "Longitude": "-79.3942565917969",
        "Name": "Due West",
        "Phone": "416.593.6267",
        "Shorthand": "duewest",
        "Type_Shorthand": "fashion",
        "URL": "/fashion/duewest"
    },
    {
        "Address": "416 Queen St.",
        "EntryID": "23310",
        "Latitude": "43.6484242",
        "Longitude": "-79.3975298",
        "Name": "Durumi & Chocolate Shoes",
        "Phone": "647.727.2591",
        "Shorthand": "durumi-chocolate-shoes-toronto",
        "Type_Shorthand": "fashion",
        "URL": "/fashion/durumi-chocolate-shoes-toronto"
    },
    {
        "Address": "288 Queen Street West",
        "EntryID": "8722",
        "Latitude": "43.6494843",
        "Longitude": "-79.392905",
        "Name": "EKO",
        "Phone": "416.593.0776",
        "Shorthand": "eko",
        "Type_Shorthand": "fashion",
        "URL": "/fashion/eko"
    },
    {
        "Address": "552 Queen Street West",
        "EntryID": "47561",
        "Latitude": "43.64764",
        "Longitude": "-79.40304",
        "Name": "Exclucity Toronto",
        "Phone": "416.815.8887",
        "Shorthand": "exclucity-toronto",
        "Type_Shorthand": "fashion",
        "URL": "/fashion/exclucity-toronto"
    },
    {
        "Address": "418 Queen St W",
        "EntryID": "26495",
        "Latitude": "43.6485274",
        "Longitude": "-79.3979021",
        "Name": "F As In Frank",
        "Phone": "647.341.6606",
        "Shorthand": "f-as-in-frank-toronto",
        "Type_Shorthand": "fashion",
        "URL": "/fashion/f-as-in-frank-toronto"
    },
    {
        "Address": "709 Queen Street West",
        "EntryID": "21894",
        "Latitude": "43.64665",
        "Longitude": "-79.40573",
        "Name": "Fashionably Yours",
        "Phone": "647.802.9687",
        "Shorthand": "fashionably-yours-toronto",
        "Type_Shorthand": "fashion",
        "URL": "/fashion/fashionably-yours-toronto"
    },
    {
        "Address": "627 Queen St. W.",
        "EntryID": "13813",
        "Latitude": "43.6474251",
        "Longitude": "-79.4028882",
        "Name": "Five on Queen",
        "Phone": "416.871.4431 ",
        "Shorthand": "five-on-queen",
        "Type_Shorthand": "fashion",
        "URL": "/fashion/five-on-queen"
    },
    {
        "Address": "777 Richmond Street West",
        "EntryID": "48029",
        "Latitude": "43.64478",
        "Longitude": "-79.40986",
        "Name": "Flirt Custom Lash Studio",
        "Phone": "855.721.7108",
        "Shorthand": "flirt-custom-lash-studio",
        "Type_Shorthand": "fashion",
        "URL": "/fashion/flirt-custom-lash-studio"
    },
    {
        "Address": "348 Queen St. West",
        "EntryID": "9701",
        "Latitude": "43.649085",
        "Longitude": "-79.394742",
        "Name": "Fraiche",
        "Phone": "416.341.8606",
        "Shorthand": "Fraiche",
        "Type_Shorthand": "fashion",
        "URL": "/fashion/Fraiche"
    },
    {
        "Address": "557 Queen St. West",
        "EntryID": "41614",
        "Latitude": "43.6477318",
        "Longitude": "-79.400238",
        "Name": "Freshly Baked Tees",
        "Phone": "877.241.8337",
        "Shorthand": "freshly-baked-tees-toronto",
        "Type_Shorthand": "fashion",
        "URL": "/fashion/freshly-baked-tees-toronto"
    },
    {
        "Address": "701 Queen St. W",
        "EntryID": "28813",
        "Latitude": "43.64684",
        "Longitude": "-79.4055332",
        "Name": "Fuzz Wax Bar",
        "Phone": "647.748.3899",
        "Shorthand": "fuzz-wax-bar-toronto",
        "Type_Shorthand": "fashion",
        "URL": "/fashion/fuzz-wax-bar-toronto"
    },
    {
        "Address": "561 Queen Street West",
        "EntryID": "17407",
        "Latitude": "43.6478647",
        "Longitude": "-79.4004759",
        "Name": "Gafas",
        "Phone": "416.601.4786",
        "Shorthand": "gafas",
        "Type_Shorthand": "fashion",
        "URL": "/fashion/gafas"
    },
    {
        "Address": "498 Queen St. West",
        "EntryID": "42189",
        "Latitude": "43.6480217",
        "Longitude": "-79.4011765",
        "Name": "Get Fresh Company",
        "Phone": "416.848.1159",
        "Shorthand": "get-fresh-company-toronto",
        "Type_Shorthand": "fashion",
        "URL": "/fashion/get-fresh-company-toronto"
    },
    {
        "Address": "161 John Street",
        "EntryID": "49559",
        "Latitude": "43.65023",
        "Longitude": "-79.39102",
        "Name": "Get Me Fly",
        "Phone": "",
        "Shorthand": "get-me-fly-toronto",
        "Type_Shorthand": "fashion",
        "URL": "/fashion/get-me-fly-toronto"
    },
    {
        "Address": "437 Queen Street West",
        "EntryID": "7019",
        "Latitude": "43.649227142334",
        "Longitude": "-79.3940811157227",
        "Name": "Get Outside",
        "Phone": "416.593.5598",
        "Shorthand": "getoutside",
        "Type_Shorthand": "fashion",
        "URL": "/fashion/getoutside"
    },
    {
        "Address": "320 Queen St. West",
        "EntryID": "30262",
        "Latitude": "43.6491612",
        "Longitude": "-79.3943364",
        "Name": "Goorin Bros.",
        "Phone": "416.408.4287",
        "Shorthand": "goorin-bros-toronto",
        "Type_Shorthand": "fashion",
        "URL": "/fashion/goorin-bros-toronto"
    },
    {
        "Address": "166 Spadina",
        "EntryID": "42971",
        "Latitude": "43.6740112",
        "Longitude": "-79.4069824",
        "Name": "Grillz ",
        "Phone": "416.709.6423",
        "Shorthand": "grillz-toronto",
        "Type_Shorthand": "fashion",
        "URL": "/fashion/grillz-toronto"
    },
    {
        "Address": "323 Queen Street West",
        "EntryID": "8724",
        "Latitude": "43.649792",
        "Longitude": "-79.391576",
        "Name": "Groovy",
        "Phone": "416.595.1059 ",
        "Shorthand": "groovy",
        "Type_Shorthand": "fashion",
        "URL": "/fashion/groovy"
    },
    {
        "Address": "477 Richmond St. W, Suite 501",
        "EntryID": "11387",
        "Latitude": "43.647537",
        "Longitude": "-79.398281",
        "Name": "Hair By David",
        "Phone": "416.913.2146 ",
        "Shorthand": "hairbydavid",
        "Type_Shorthand": "fashion",
        "URL": "/fashion/hairbydavid"
    },
    {
        "Address": "695 Queen Street West",
        "EntryID": "48980",
        "Latitude": "43.64673",
        "Longitude": "-79.40524",
        "Name": "Hayley Elsaesser",
        "Phone": "416.363.6226",
        "Shorthand": "hayley-elsaesser-toronto",
        "Type_Shorthand": "fashion",
        "URL": "/fashion/hayley-elsaesser-toronto"
    },
    {
        "Address": "515 Queen St. West",
        "EntryID": "44146",
        "Latitude": "43.6480217",
        "Longitude": "-79.39888",
        "Name": "Hoax Couture",
        "Phone": "416.504.7132",
        "Shorthand": "hoax-couture-toronto",
        "Type_Shorthand": "fashion",
        "URL": "/fashion/hoax-couture-toronto"
    },
    {
        "Address": "622 Queen St. West",
        "EntryID": "21064",
        "Latitude": "43.6470298",
        "Longitude": "-79.4055107",
        "Name": "Jacob & Sebastian",
        "Phone": "647.345.0478",
        "Shorthand": "jacob-and-sebastian-toronto",
        "Type_Shorthand": "fashion",
        "URL": "/fashion/jacob-and-sebastian-toronto"
    },
    {
        "Address": "352 Queen Street West",
        "EntryID": "48567",
        "Latitude": "43.64925",
        "Longitude": "-79.3954",
        "Name": "Jealousy",
        "Phone": "647.748.8186",
        "Shorthand": "jealousy-toronto",
        "Type_Shorthand": "fashion",
        "URL": "/fashion/jealousy-toronto"
    },
    {
        "Address": "611 Queen St W",
        "EntryID": "26974",
        "Latitude": "43.6474773",
        "Longitude": "-79.4025073",
        "Name": "Kind Exchange",
        "Phone": "647.349.5463",
        "Shorthand": "kind-exchange-toronto",
        "Type_Shorthand": "fashion",
        "URL": "/fashion/kind-exchange-toronto"
    },
    {
        "Address": "71 Duncan St.",
        "EntryID": "36478",
        "Latitude": "43.6500092",
        "Longitude": "-79.3891678",
        "Name": "Kingpin's Hideway",
        "Phone": "647.466.2945",
        "Shorthand": "kingpins-hideaway-toronto",
        "Type_Shorthand": "fashion",
        "URL": "/fashion/kingpins-hideaway-toronto"
    },
    {
        "Address": "253 Queen Street West",
        "EntryID": "8727",
        "Latitude": "43.650309",
        "Longitude": "-79.38905",
        "Name": "Lavish and Squalor",
        "Phone": "416.599.4779",
        "Shorthand": "lavishandsqualor",
        "Type_Shorthand": "fashion",
        "URL": "/fashion/lavishandsqualor"
    },
    {
        "Address": "336 Queen St W",
        "EntryID": "51638",
        "Latitude": "43.64938",
        "Longitude": "-79.39509",
        "Name": "Livify",
        "Phone": "647.342.4442",
        "Shorthand": "livify-toronto",
        "Type_Shorthand": "fashion",
        "URL": "/fashion/livify-toronto"
    },
    {
        "Address": "620 Richmond St. West",
        "EntryID": "40485",
        "Latitude": "43.6467209",
        "Longitude": "-79.4032669",
        "Name": "Loft Hair Lounge",
        "Phone": "416.703.8686",
        "Shorthand": "loft-hair-lounge-toronto",
        "Type_Shorthand": "fashion",
        "URL": "/fashion/loft-hair-lounge-toronto"
    },
    {
        "Address": "486 Queen St. West",
        "EntryID": "40864",
        "Latitude": "43.64806",
        "Longitude": "-79.40078",
        "Name": "Lumieres de Baia",
        "Phone": "647.351.2399",
        "Shorthand": "lumieres-de-baia-toronto",
        "Type_Shorthand": "fashion",
        "URL": "/fashion/lumieres-de-baia-toronto"
    },
    {
        "Address": "312 Queen Street West",
        "EntryID": "45773",
        "Latitude": "43.6494598",
        "Longitude": "-79.3941193",
        "Name": "Lush Cosmetics",
        "Phone": "416.599.5874",
        "Shorthand": "lush-cosmetics-toronto",
        "Type_Shorthand": "fashion",
        "URL": "/fashion/lush-cosmetics-toronto"
    },
    {
        "Address": "256a Queen St. West",
        "EntryID": "39417",
        "Latitude": "43.6500282",
        "Longitude": "-79.3914566",
        "Name": "Mad One Barber Shop",
        "Phone": "",
        "Shorthand": "mad-one-barber-shop-toronto",
        "Type_Shorthand": "fashion",
        "URL": "/fashion/mad-one-barber-shop-toronto"
    },
    {
        "Address": "14 McCaul Street",
        "EntryID": "11219",
        "Latitude": "43.650852",
        "Longitude": "-79.390014",
        "Name": "Malabar Theatrical Costumes",
        "Phone": "416.598.2581",
        "Shorthand": "malabar",
        "Type_Shorthand": "fashion",
        "URL": "/fashion/malabar"
    },
    {
        "Address": "541 Queen Street W.",
        "EntryID": "34751",
        "Latitude": "43.6479381",
        "Longitude": "-79.3998977",
        "Name": "Mama Loves You Vintage",
        "Phone": "416.603.4747",
        "Shorthand": "mama-loves-you-vintage",
        "Type_Shorthand": "fashion",
        "URL": "/fashion/mama-loves-you-vintage"
    },
    {
        "Address": "477 RIchmond St. West",
        "EntryID": "17346",
        "Latitude": "43.647512",
        "Longitude": "-79.398268",
        "Name": "Mankind Grooming Studio",
        "Phone": "416.551.1113",
        "Shorthand": "mankind-grooming-studio",
        "Type_Shorthand": "fashion",
        "URL": "/fashion/mankind-grooming-studio"
    },
    {
        "Address": "395 Queen St. West",
        "EntryID": "22723",
        "Latitude": "43.6490339",
        "Longitude": "-79.3944752",
        "Name": "Marcato",
        "Phone": "416.599.8882",
        "Shorthand": "marcato-toronto",
        "Type_Shorthand": "fashion",
        "URL": "/fashion/marcato-toronto"
    },
    {
        "Address": "534 Queen Street West",
        "EntryID": "23832",
        "Latitude": "43.647612",
        "Longitude": "-79.4024555",
        "Name": "MoSheTa",
        "Phone": "647.344.3442",
        "Shorthand": "mosheta-toronto",
        "Type_Shorthand": "fashion",
        "URL": "/fashion/mosheta-toronto"
    },
    {
        "Address": "360 Queen St West",
        "EntryID": "47823",
        "Latitude": "43.64922",
        "Longitude": "-79.39565",
        "Name": "Nobis",
        "Phone": "416.979.8886",
        "Shorthand": "nobis-toronto",
        "Type_Shorthand": "fashion",
        "URL": "/fashion/nobis-toronto"
    },
    {
        "Address": "639 Queen St. West",
        "EntryID": "46386",
        "Latitude": "43.64715",
        "Longitude": "-79.4033199",
        "Name": "Nuvango",
        "Phone": "416.955.7986",
        "Shorthand": "nuvango-toronto",
        "Type_Shorthand": "fashion",
        "URL": "/fashion/nuvango-toronto"
    },
    {
        "Address": "363 Queen St. West",
        "EntryID": "48131",
        "Latitude": "43.64927",
        "Longitude": "-79.39302",
        "Name": "NYX Cosmetics Toronto",
        "Phone": "",
        "Shorthand": "nyx-cosmetics-toronto",
        "Type_Shorthand": "fashion",
        "URL": "/fashion/nyx-cosmetics-toronto"
    },
    {
        "Address": "623 Queen St. W.",
        "EntryID": "42857",
        "Latitude": "43.6472092",
        "Longitude": "-79.4028625",
        "Name": "Optical Thirty 8 (Queen West)",
        "Phone": "416.603.0388",
        "Shorthand": "optical-thirty-8-queen-west-toronto",
        "Type_Shorthand": "fashion",
        "URL": "/fashion/optical-thirty-8-queen-west-toronto"
    },
    {
        "Address": "515 Queen St. West",
        "EntryID": "13808",
        "Latitude": "43.6481848",
        "Longitude": "-79.3989847",
        "Name": "Original",
        "Phone": "416.603.9400",
        "Shorthand": "original",
        "Type_Shorthand": "fashion",
        "URL": "/fashion/original"
    },
    {
        "Address": "477 Richmond St. W",
        "EntryID": "37148",
        "Latitude": "43.6473885",
        "Longitude": "-79.3981171",
        "Name": "Original Grooming Experts",
        "Phone": "647.352.5649",
        "Shorthand": "original-grooming-experts-toronto",
        "Type_Shorthand": "fashion",
        "URL": "/fashion/original-grooming-experts-toronto"
    },
    {
        "Address": "688 Richmond St. West",
        "EntryID": "32096",
        "Latitude": "43.6458869",
        "Longitude": "-79.406768",
        "Name": "Pinky's Nails",
        "Phone": "647.787.9521",
        "Shorthand": "pinkys-nails-toronto",
        "Type_Shorthand": "fashion",
        "URL": "/fashion/pinkys-nails-toronto"
    },
    {
        "Address": "399 Queen St. West",
        "EntryID": "45989",
        "Latitude": "43.6488609",
        "Longitude": "-79.3944778",
        "Name": "Q&S",
        "Phone": "416.947.8474",
        "Shorthand": "q-and-s-toronto",
        "Type_Shorthand": "fashion",
        "URL": "/fashion/q-and-s-toronto"
    },
    {
        "Address": "495 Queen Street West",
        "EntryID": "49557",
        "Latitude": "43.64818",
        "Longitude": "-79.39831",
        "Name": "Runaway Luxe",
        "Phone": "647.347.5893",
        "Shorthand": "runaway-luxe-toronto",
        "Type_Shorthand": "fashion",
        "URL": "/fashion/runaway-luxe-toronto"
    },
    {
        "Address": "495 Queen St W",
        "EntryID": "51577",
        "Latitude": "43.64818",
        "Longitude": "-79.39831",
        "Name": "Runway Luxe",
        "Phone": "647.347.5893",
        "Shorthand": "runway-luxe-toronto",
        "Type_Shorthand": "fashion",
        "URL": "/fashion/runway-luxe-toronto"
    },
    {
        "Address": "399 Queen St. West",
        "EntryID": "43803",
        "Latitude": "43.6488609",
        "Longitude": "-79.3944778",
        "Name": "Saje Natural Wellness",
        "Phone": "416.340.7494",
        "Shorthand": "saje-natural-wellness-toronto",
        "Type_Shorthand": "fashion",
        "URL": "/fashion/saje-natural-wellness-toronto"
    },
    {
        "Address": "644 Queen St. W",
        "EntryID": "45038",
        "Latitude": "43.6470184",
        "Longitude": "-79.4062576",
        "Name": "Smoke + Ash",
        "Phone": "647.770.0443",
        "Shorthand": "smoke-ash-toronto",
        "Type_Shorthand": "fashion",
        "URL": "/fashion/smoke-ash-toronto"
    },
    {
        "Address": "323 Queen Street West",
        "EntryID": "8730",
        "Latitude": "43.649792",
        "Longitude": "-79.391576",
        "Name": "So Hip it Hurts",
        "Phone": "416.971.6901",
        "Shorthand": "sohipithurts",
        "Type_Shorthand": "fashion",
        "URL": "/fashion/sohipithurts"
    },
    {
        "Address": "292 Queen Street West",
        "EntryID": "17414",
        "Latitude": "43.64974",
        "Longitude": "-79.39307",
        "Name": "Specs & Specs",
        "Phone": "416.979.3937",
        "Shorthand": "specs-and-specs",
        "Type_Shorthand": "fashion",
        "URL": "/fashion/specs-and-specs"
    },
    {
        "Address": "165 Bathurst Street",
        "EntryID": "48390",
        "Latitude": "43.64673",
        "Longitude": "-79.40354",
        "Name": "Strut Studio",
        "Phone": "647.207.7872",
        "Shorthand": "strut-studio-toronto",
        "Type_Shorthand": "fashion",
        "URL": "/fashion/strut-studio-toronto"
    },
    {
        "Address": "468 Queen St. West",
        "EntryID": "29043",
        "Latitude": "43.648016",
        "Longitude": "-79.3999648",
        "Name": "SVP Sports",
        "Phone": "647.351.7402",
        "Shorthand": "svp-sports-toronto",
        "Type_Shorthand": "fashion",
        "URL": "/fashion/svp-sports-toronto"
    },
    {
        "Address": "240 Queen St West",
        "EntryID": "51664",
        "Latitude": "43.65014",
        "Longitude": "-79.3906",
        "Name": "Sweet Mango",
        "Phone": "647.880.9566",
        "Shorthand": "sweet-mango-toronto",
        "Type_Shorthand": "fashion",
        "URL": "/fashion/sweet-mango-toronto"
    },
    {
        "Address": "577 Queen St W",
        "EntryID": "16695",
        "Latitude": "43.647738",
        "Longitude": "-79.4011804",
        "Name": "The Cabinet Salon",
        "Phone": "647.344.3132",
        "Shorthand": "cabinet-salon",
        "Type_Shorthand": "fashion",
        "URL": "/fashion/cabinet-salon"
    },
    {
        "Address": "719 Queen St  West",
        "EntryID": "42009",
        "Latitude": "43.6465492",
        "Longitude": "-79.4060593",
        "Name": "The Cure Apothecary",
        "Phone": "647.350.8274",
        "Shorthand": "cure-apothecary-toronto",
        "Type_Shorthand": "fashion",
        "URL": "/fashion/cure-apothecary-toronto"
    },
    {
        "Address": "9 Camden Street",
        "EntryID": "47979",
        "Latitude": "43.64706",
        "Longitude": "-79.39637",
        "Name": "The Legends League",
        "Phone": "",
        "Shorthand": "the-legends-league-toronto",
        "Type_Shorthand": "fashion",
        "URL": "/fashion/the-legends-league-toronto"
    },
    {
        "Address": "663 Queen St. West",
        "EntryID": "34752",
        "Latitude": "43.6470425",
        "Longitude": "-79.4044341",
        "Name": "The Loft Hair Salon",
        "Phone": "416.868.0202",
        "Shorthand": "loft-hair-salon-toronto",
        "Type_Shorthand": "fashion",
        "URL": "/fashion/loft-hair-salon-toronto"
    },
    {
        "Address": "662 Queen St W",
        "EntryID": "30080",
        "Latitude": "43.646759",
        "Longitude": "-79.4069595",
        "Name": "The Store on Queen",
        "Phone": "647.748.8767",
        "Shorthand": "the-store-on-queen-toronto",
        "Type_Shorthand": "fashion",
        "URL": "/fashion/the-store-on-queen-toronto"
    },
    {
        "Address": "575 Queen Street West, Toronto",
        "EntryID": "46078",
        "Latitude": "43.6475716",
        "Longitude": "-79.4010162",
        "Name": "Third Floor Tailors",
        "Phone": "647.977.8336",
        "Shorthand": "third-floor-tailors-toronto",
        "Type_Shorthand": "fashion",
        "URL": "/fashion/third-floor-tailors-toronto"
    },
    {
        "Address": "394 Queen St W",
        "EntryID": "28666",
        "Latitude": "43.6487016",
        "Longitude": "-79.3970203",
        "Name": "Timeless Apparel",
        "Phone": "416.850.9129",
        "Shorthand": "timeless-apparel-toronto",
        "Type_Shorthand": "fashion",
        "URL": "/fashion/timeless-apparel-toronto"
    },
    {
        "Address": "357 Queen St West",
        "EntryID": "49757",
        "Latitude": "43.64929",
        "Longitude": "-79.39294",
        "Name": "Titika Active Couture",
        "Phone": "416.977.6686",
        "Shorthand": "titika-active-couture-toronto",
        "Type_Shorthand": "fashion",
        "URL": "/fashion/titika-active-couture-toronto"
    },
    {
        "Address": "248 Queen Street West",
        "EntryID": "8731",
        "Latitude": "43.649935",
        "Longitude": "-79.39091",
        "Name": "Tribal Rhythm",
        "Phone": "416.595.5817",
        "Shorthand": "tribalrhythm",
        "Type_Shorthand": "fashion",
        "URL": "/fashion/tribalrhythm"
    },
    {
        "Address": "559 Queen Street West",
        "EntryID": "11245",
        "Latitude": "43.6478322",
        "Longitude": "-79.4004156",
        "Name": "Tryst Lingerie",
        "Phone": "416.484.6678",
        "Shorthand": "tryst",
        "Type_Shorthand": "fashion",
        "URL": "/fashion/tryst"
    },
    {
        "Address": "438 Queen Street West",
        "EntryID": "48462",
        "Latitude": "43.64841",
        "Longitude": "-79.39881",
        "Name": "Untitled & Co.",
        "Phone": "647.748.4112",
        "Shorthand": "untitled-co-toronto",
        "Type_Shorthand": "fashion",
        "URL": "/fashion/untitled-co-toronto"
    },
    {
        "Address": "636 Queen St. W.",
        "EntryID": "40874",
        "Latitude": "43.6470604",
        "Longitude": "-79.4060211",
        "Name": "Voluptuous (Queen West)",
        "Phone": "416.533.5253",
        "Shorthand": "voluptuous-queen-west-toronto",
        "Type_Shorthand": "fashion",
        "URL": "/fashion/voluptuous-queen-west-toronto"
    },
    {
        "Address": "575 Queen St. West",
        "EntryID": "41114",
        "Latitude": "43.6475716",
        "Longitude": "-79.4010162",
        "Name": "Wildhagen",
        "Phone": "416.830.8589",
        "Shorthand": "wildhagen-toronto",
        "Type_Shorthand": "fashion",
        "URL": "/fashion/wildhagen-toronto"
    },
    {
        "Address": "567 Queen Street West",
        "EntryID": "48461",
        "Latitude": "43.64763",
        "Longitude": "-79.40067",
        "Name": "Yo Sox",
        "Phone": "647.749.4334",
        "Shorthand": "yo-sox-toronto",
        "Type_Shorthand": "fashion",
        "URL": "/fashion/yo-sox-toronto"
    },
    {
        "Address": "630 Queen St. W",
        "EntryID": "38220",
        "Latitude": "43.647049",
        "Longitude": "-79.405777",
        "Name": "Young & Tae",
        "Phone": "416.901.9887",
        "Shorthand": "young-tae-toronto",
        "Type_Shorthand": "fashion",
        "URL": "/fashion/young-tae-toronto"
    },
    {
        "Address": "616 Queen St. W",
        "EntryID": "36897",
        "Latitude": "43.64699",
        "Longitude": "-79.40537",
        "Name": "Your Feel Good Soap Company",
        "Phone": "647.834.9347",
        "Shorthand": "your-feel-good-soap-company-toronto",
        "Type_Shorthand": "fashion",
        "URL": "/fashion/your-feel-good-soap-company-toronto"
    }
]
